{
  "hospitals": [
    {
      "id": "h001",
      "name": "Government General Hospital",
      "address": "Park Town, Chennai, Tamil Nadu 600003",
      "phone": "+91-44-25305000",
      "latitude": 13.079683,
      "longitude": 80.272882,
      "specialties": ["General Medicine", "Surgery", "Pediatrics", "Obstetrics & Gynecology"],
      "operatingHours": "24/7",
      "hasEmergency": true,
      "bedCount": 1500,
      "image": "gen_hospital.jpg"
    },
    {
      "id": "h002",
      "name": "Government Medical College Hospital",
      "address": "Calicut Road, Manjeri, Kerala 676121",
      "phone": "+91-483-2766056",
      "latitude": 11.119196,
      "longitude": 76.123487,
      "specialties": ["General Medicine", "Cardiology", "Neurology", "Dermatology"],
      "operatingHours": "24/7",
      "hasEmergency": true,
      "bedCount": 800,
      "image": "med_college.jpg"
    },
    {
      "id": "h003",
      "name": "AIIMS Delhi",
      "address": "Sri Aurobindo Marg, Ansari Nagar, New Delhi 110029",
      "phone": "+91-11-26588500",
      "latitude": 28.567218,
      "longitude": 77.208359,
      "specialties": ["Oncology", "Cardiology", "Neurology", "Urology", "Nephrology"],
      "operatingHours": "24/7",
      "hasEmergency": true,
      "bedCount": 2500,
      "image": "aiims_delhi.jpg"
    },
    {
      "id": "h004",
      "name": "Rajiv Gandhi Government Hospital",
      "address": "EVR Periyar Salai, Park Town, Chennai 600003",
      "phone": "+91-44-25305001",
      "latitude": 13.081252,
      "longitude": 80.275497,
      "specialties": ["Cardiology", "Neurosurgery", "Nephrology", "Plastic Surgery"],
      "operatingHours": "24/7",
      "hasEmergency": true,
      "bedCount": 1900,
      "image": "rajiv_hospital.jpg"
    },
    {
      "id": "h005",
      "name": "Government Medical College Kozhikode",
      "address": "Medical College Rd, Kozhikode, Kerala 673008",
      "phone": "+91-495-2350227",
      "latitude": 11.272204,
      "longitude": 75.834298,
      "specialties": ["General Medicine", "Pediatrics", "Dermatology", "ENT"],
      "operatingHours": "24/7",
      "hasEmergency": true,
      "bedCount": 1200,
      "image": "kozhikode_med.jpg"
    },
    {
      "id": "h006",
      "name": "Safdarjung Hospital",
      "address": "Ansari Nagar West, New Delhi 110029",
      "phone": "+91-11-26707444",
      "latitude": 28.568788,
      "longitude": 77.204849,
      "specialties": ["General Medicine", "Surgery", "Burns & Plastic Surgery", "Orthopedics"],
      "operatingHours": "24/7",
      "hasEmergency": true,
      "bedCount": 1500,
      "image": "safdarjung.jpg"
    },
    {
      "id": "h007",
      "name": "Madras Medical College Hospital",
      "address": "EVR Periyar Salai, Park Town, Chennai 600003",
      "phone": "+91-44-25305002",
      "latitude": 13.080231,
      "longitude": 80.273128,
      "specialties": ["General Medicine", "Cardiology", "Neurology", "Orthopedics"],
      "operatingHours": "24/7",
      "hasEmergency": true,
      "bedCount": 1400,
      "image": "madras_med.jpg"
    },
    {
      "id": "h008",
      "name": "Government Medical College Trivandrum",
      "address": "Medical College Rd, Thiruvananthapuram, Kerala 695011",
      "phone": "+91-471-2528386",
      "latitude": 8.523710,
      "longitude": 76.928161,
      "specialties": ["General Medicine", "Cardiology", "Neurology", "Gastroenterology"],
      "operatingHours": "24/7",
      "hasEmergency": true,
      "bedCount": 1300,
      "image": "trivandrum_med.jpg"
    },
    {
      "id": "h009",
      "name": "JIPMER Puducherry",
      "address": "Dhanvantari Nagar, Puducherry 605006",
      "phone": "+91-413-2272380",
      "latitude": 11.950600,
      "longitude": 79.800400,
      "specialties": ["General Medicine", "Cardiology", "Neurology", "Endocrinology"],
      "operatingHours": "24/7",
      "hasEmergency": true,
      "bedCount": 1800,
      "image": "jipmer.jpg"
    },
    {
      "id": "h010",
      "name": "AIIMS Bhubaneswar",
      "address": "Sijua, Patrapada, Bhubaneswar, Odisha 751019",
      "phone": "+91-674-2476789",
      "latitude": 20.229752,
      "longitude": 85.760307,
      "specialties": ["General Medicine", "Cardiology", "Neurology", "Nephrology"],
      "operatingHours": "24/7",
      "hasEmergency": true,
      "bedCount": 900,
      "image": "aiims_bhubaneswar.jpg"
    }
  ]
}